[
  {
    "alt": 104,
    "altitude": 104,
    "antenna": [
      "UHF Helical"
    ],
    "created": "2015-07-22T13:26:49Z",
    "description": "",
    "id": 1,
    "last_seen": "2018-06-23T04:55:30Z",
    "lat": 38.01697,
    "lng": 23.7314,
    "location": "",
    "lon": 23.7314,
    "min_horizon": 10,
    "name": "Hackerspace.gr 1",
    "observations": 1907,
    "qthlocator": "KM18rd",
    "status": "Testing"
  },
  {
    "alt": 280,
    "altitude": 280,
    "antenna": [
      "UHF Yagi",
      "VHF Yagi"
    ],
    "created": "2015-07-22T14:24:10Z",
    "description": "Yaesu G-5000 with M2 cross yagi antennas",
    "id": 2,
    "last_seen": "2018-06-23T04:55:04Z",
    "lat": 39.236,
    "lng": -86.305,
    "location": "",
    "lon": -86.305,
    "min_horizon": 10,
    "name": "KB9JHU",
    "observations": 11665,
    "qthlocator": "EM69uf",
    "status": "Online"
  },
  {
    "alt": 120,
    "altitude": 120,
    "antenna": [
      "VHF Turnstile",
      "UHF Turnstile"
    ],
    "created": "2015-10-11T13:59:38Z",
    "description": "",
    "id": 4,
    "last_seen": "2018-06-23T04:55:09Z",
    "lat": 38.024,
    "lng": 23.733,
    "location": "",
    "lon": 23.733,
    "min_horizon": 10,
    "name": "SV1IYO",
    "observations": 309,
    "qthlocator": "KM18ua",
    "status": "Testing"
  },
  {
    "alt": 370,
    "altitude": 370,
    "antenna": [
      "UHF Yagi",
      "VHF Yagi"
    ],
    "created": "2015-11-23T12:12:51Z",
    "description": "2018-04-05\r\ncurrently offline because of rotor failure",
    "id": 5,
    "last_seen": "2018-06-23T04:53:17Z",
    "lat": 47.058979,
    "lng": 15.460038,
    "location": "",
    "lon": 15.460038,
    "min_horizon": 10,
    "name": "oe6xug",
    "observations": 10,
    "qthlocator": "HN77rb",
    "status": "Testing"
  },
  {
    "alt": 150,
    "altitude": 150,
    "antenna": [
      "UHF Helical",
      "VHF Yagi"
    ],
    "created": "2016-01-17T19:28:26Z",
    "description": "G5500 rotator with SatNOGS g5500 rotator controller, USRP B200mini, Wimo X-Quad VHF and SatNOGS Helical 438-2 UHF",
    "id": 6,
    "last_seen": "2018-06-23T04:55:16Z",
    "lat": 38.048444,
    "lng": 23.739312,
    "location": "",
    "lon": 23.739312,
    "min_horizon": 25,
    "name": "Apomahon",
    "observations": 12621,
    "qthlocator": "KM18ub",
    "status": "Online"
  },
  {
    "alt": 65,
    "altitude": 65,
    "antenna": [
      "VHF Turnstile"
    ],
    "created": "2017-05-04T20:21:09Z",
    "description": "",
    "id": 7,
    "last_seen": "2018-06-23T04:55:19Z",
    "lat": 37.97034,
    "lng": 23.71394,
    "location": "",
    "lon": 23.71394,
    "min_horizon": 25,
    "name": "Stony",
    "observations": 7016,
    "qthlocator": "KM17ux",
    "status": "Online"
  },
  {
    "alt": 208,
    "altitude": 208,
    "antenna": [
      "UHF Helical"
    ],
    "created": "2017-05-17T06:05:44Z",
    "description": "",
    "id": 8,
    "last_seen": "2017-11-20T05:59:53Z",
    "lat": 38.022,
    "lng": 23.828,
    "location": "",
    "lon": 23.828,
    "min_horizon": 30,
    "name": "SV1QZZ - UHF #1",
    "observations": 5,
    "qthlocator": "KM18va",
    "status": "Offline"
  },
  {
    "alt": 100,
    "altitude": 100,
    "antenna": [
      "VHF Yagi"
    ],
    "created": "2017-05-17T18:34:49Z",
    "description": "",
    "id": 9,
    "last_seen": "2017-09-20T22:45:24Z",
    "lat": 35.313986,
    "lng": 25.146878,
    "location": "",
    "lon": 25.146878,
    "min_horizon": 10,
    "name": "Talos",
    "observations": 73,
    "qthlocator": "KM25nh",
    "status": "Offline"
  },
  {
    "alt": 183,
    "altitude": 183,
    "antenna": [
      "VHF Turnstile"
    ],
    "created": "2017-05-19T17:58:35Z",
    "description": "Pine64 Station",
    "id": 10,
    "last_seen": "2018-06-17T19:21:27Z",
    "lat": 37.956,
    "lng": 23.765,
    "location": "",
    "lon": 23.765,
    "min_horizon": 20,
    "name": "YFK",
    "observations": 1069,
    "qthlocator": "KM17vw",
    "status": "Offline"
  },
  {
    "alt": 60,
    "altitude": 60,
    "antenna": [
      "UHF Yagi",
      "VHF Yagi"
    ],
    "created": "2017-05-30T17:30:25Z",
    "description": "",
    "id": 11,
    "last_seen": "2017-05-30T18:29:20Z",
    "lat": 38.0047,
    "lng": 23.70054,
    "location": "",
    "lon": 23.70054,
    "min_horizon": 10,
    "name": "SZ1SV",
    "observations": 0,
    "qthlocator": "KM18ua",
    "status": "Offline"
  },
  {
    "alt": 67,
    "altitude": 67,
    "antenna": [
      "VHF Lindenblad"
    ],
    "created": "2017-06-02T14:29:33Z",
    "description": "NOTE: During AO-92 commissioning, the UHF station is down, and the VHF is a crossed Yagi tracking AO-85, AO-91, and AO-92",
    "id": 12,
    "last_seen": "2018-06-23T04:55:25Z",
    "lat": 42.744,
    "lng": -71.538,
    "location": "",
    "lon": -71.538,
    "min_horizon": 0,
    "name": "W2BFJ",
    "observations": 5618,
    "qthlocator": "FN42fr",
    "status": "Online"
  },
  {
    "alt": 48,
    "altitude": 48,
    "antenna": [
      "VHF Turnstile"
    ],
    "created": "2017-06-10T22:12:33Z",
    "description": "Airspy One connected to Up-board running Ubuntu server 16.04.",
    "id": 13,
    "last_seen": "2018-06-23T04:54:59Z",
    "lat": 55.51,
    "lng": 11.74,
    "location": "",
    "lon": 11.74,
    "min_horizon": 15,
    "name": "OZ9AEC-VHF1",
    "observations": 8061,
    "qthlocator": "JO55um",
    "status": "Online"
  },
  {
    "alt": 80,
    "altitude": 80,
    "antenna": [
      "VHF Turnstile"
    ],
    "created": "2017-06-17T16:46:08Z",
    "description": "",
    "id": 14,
    "last_seen": "2017-10-03T14:11:50Z",
    "lat": 53.402,
    "lng": -2.978,
    "location": "",
    "lon": -2.978,
    "min_horizon": 10,
    "name": "FACT",
    "observations": 87,
    "qthlocator": "IO83mj",
    "status": "Offline"
  },
  {
    "alt": 8,
    "altitude": 8,
    "antenna": [
      "VHF Turnstile"
    ],
    "created": "2017-07-13T12:38:23Z",
    "description": "",
    "id": 15,
    "last_seen": "2018-06-23T04:54:53Z",
    "lat": -34.8463,
    "lng": 138.6949,
    "location": "",
    "lon": 138.6949,
    "min_horizon": 20,
    "name": "VK5QI-2M",
    "observations": 7503,
    "qthlocator": "PF95id",
    "status": "Online"
  },
  {
    "alt": 5,
    "altitude": 5,
    "antenna": [
      "UHF Turnstile"
    ],
    "created": "2017-07-15T12:59:11Z",
    "description": "",
    "id": 16,
    "last_seen": "2018-06-23T04:55:15Z",
    "lat": -34.721,
    "lng": 138.6928,
    "location": "",
    "lon": 138.6928,
    "min_horizon": 30,
    "name": "VK5QI-70CM",
    "observations": 8994,
    "qthlocator": "PF95ig",
    "status": "Online"
  },
  {
    "alt": 17,
    "altitude": 17,
    "antenna": [
      "UHF Helical"
    ],
    "created": "2017-08-29T22:03:38Z",
    "description": "This is the official ground station of the Portland State Aerospace Society. It was created to track the group's satellite OreSAT and to facilitate the open source aerospace movement.",
    "id": 17,
    "last_seen": null,
    "lat": 45.509141,
    "lng": -122.681037,
    "location": "",
    "lon": -122.681037,
    "min_horizon": 15,
    "name": "PSAS_GS",
    "observations": 0,
    "qthlocator": "CN85pm",
    "status": "Offline"
  },
  {
    "alt": 155,
    "altitude": 155,
    "antenna": [
      "VHF Turnstile"
    ],
    "created": "2017-09-05T00:59:47Z",
    "description": "",
    "id": 18,
    "last_seen": null,
    "lat": -42.992,
    "lng": 147.31,
    "location": "",
    "lon": 147.31,
    "min_horizon": 10,
    "name": "VK7HSE",
    "observations": 0,
    "qthlocator": "QE37pa",
    "status": "Offline"
  },
  {
    "alt": 45,
    "altitude": 45,
    "antenna": [
      "UHF Turnstile"
    ],
    "created": "2017-09-30T14:16:08Z",
    "description": "",
    "id": 21,
    "last_seen": "2018-06-23T04:55:31Z",
    "lat": 36.96089,
    "lng": 22.14489,
    "location": "",
    "lon": 22.14489,
    "min_horizon": 20,
    "name": "Avia",
    "observations": 7369,
    "qthlocator": "KM16bx",
    "status": "Online"
  },
  {
    "alt": 229,
    "altitude": 229,
    "antenna": [
      "VHF Quadrafilar"
    ],
    "created": "2017-10-08T21:10:41Z",
    "description": "Home made QFH antenna, FM band block. Not in a good location, trees on north and houses on south side blocking lot of signals",
    "id": 22,
    "last_seen": "2018-06-23T04:55:33Z",
    "lat": 43.28,
    "lng": -87.97,
    "location": "",
    "lon": -87.97,
    "min_horizon": 45,
    "name": "Ferns-1",
    "observations": 5314,
    "qthlocator": "EN63ag",
    "status": "Online"
  },
  {
    "alt": 6,
    "altitude": 6,
    "antenna": [
      "VHF Turnstile"
    ],
    "created": "2017-10-09T01:56:32Z",
    "description": "RPi 3, RTL-SDR v3, Mini-Kits 144-148MHz preamp,  Stanislav Palo VHF turnstile",
    "id": 23,
    "last_seen": "2018-06-23T04:55:38Z",
    "lat": -32.066,
    "lng": 115.988,
    "location": "",
    "lon": 115.988,
    "min_horizon": 4,
    "name": "Zath-VHF",
    "observations": 5574,
    "qthlocator": "OF77xw",
    "status": "Online"
  },
  {
    "alt": 6,
    "altitude": 6,
    "antenna": [
      "UHF Turnstile"
    ],
    "created": "2017-10-09T01:59:47Z",
    "description": "RPi 3, RTL-SDR v3, Mini-Kits 430MHz preamp,  Stanislav Palo UHF turnstile",
    "id": 24,
    "last_seen": "2018-06-23T04:55:18Z",
    "lat": -32.066,
    "lng": 115.988,
    "location": "",
    "lon": 115.988,
    "min_horizon": 4,
    "name": "Zath-UHF",
    "observations": 6242,
    "qthlocator": "OF77xw",
    "status": "Online"
  },
  {
    "alt": 50,
    "altitude": 50,
    "antenna": [
      "UHF Yagi",
      "VHF Yagi"
    ],
    "created": "2017-10-10T01:49:27Z",
    "description": "This Ground Station Operated from a Raspberry Pi-3B  and an RTLSDR dongle.  The Antennas are both from M2 Antennas.  The Rotor System is provided by Portable Rotation.  The property is on a decline and the antenna location is south of the main house, so signals are blocked to 30 degrees to the North.  Currently there is a pre-Amp on the feed line at the antenna location.  The feedline is 50 Feet of LMR400. - MECHANICAL FAILURE in the Elevation Unit.  Off line for Testing Right now 06/13/18",
    "id": 25,
    "last_seen": "2018-06-23T04:55:12Z",
    "lat": 38.7708,
    "lng": -121.29,
    "location": "",
    "lon": -121.29,
    "min_horizon": 15,
    "name": "N7IPY",
    "observations": 1767,
    "qthlocator": "CM98is",
    "status": "Testing"
  },
  {
    "alt": 145,
    "altitude": 145,
    "antenna": [
      "VHF Turnstile",
      "UHF Turnstile"
    ],
    "created": "2017-10-11T21:19:49Z",
    "description": "",
    "id": 26,
    "last_seen": null,
    "lat": 38.395,
    "lng": 21.828,
    "location": "",
    "lon": 21.828,
    "min_horizon": 10,
    "name": "SV1IYO/A",
    "observations": 0,
    "qthlocator": "KM08vj",
    "status": "Offline"
  },
  {
    "alt": 634,
    "altitude": 634,
    "antenna": [
      "VHF Turnstile"
    ],
    "created": "2017-10-11T22:13:35Z",
    "description": "Turnstile Antenna, LNA4ALL, NooElec NESDR SMArt",
    "id": 27,
    "last_seen": "2018-06-23T04:55:03Z",
    "lat": 37.194,
    "lng": -80.489,
    "location": "",
    "lon": -80.489,
    "min_horizon": 15,
    "name": "NB3T - VHF",
    "observations": 2726,
    "qthlocator": "EM97se",
    "status": "Online"
  },
  {
    "alt": 634,
    "altitude": 634,
    "antenna": [
      "UHF Turnstile"
    ],
    "created": "2017-10-11T22:17:21Z",
    "description": "Turnstile Antenna, LNA4ALL, NooElec NESDR SMArt",
    "id": 28,
    "last_seen": "2018-06-23T04:55:34Z",
    "lat": 37.194,
    "lng": -80.489,
    "location": "",
    "lon": -80.489,
    "min_horizon": 15,
    "name": "NB3T - UHF",
    "observations": 2829,
    "qthlocator": "EM97se",
    "status": "Online"
  },
  {
    "alt": 10,
    "altitude": 10,
    "antenna": [
      "UHF Helical"
    ],
    "created": "2017-10-31T22:42:22Z",
    "description": "QFH, Preamp/Filter, RTLSDR. Noisy environment.",
    "id": 31,
    "last_seen": "2018-06-23T04:55:33Z",
    "lat": 54.594049,
    "lng": -5.713397,
    "location": "",
    "lon": -5.713397,
    "min_horizon": 30,
    "name": "GI7UGV - UHF",
    "observations": 6850,
    "qthlocator": "IO74do",
    "status": "Online"
  },
  {
    "alt": 208,
    "altitude": 208,
    "antenna": [
      "UHF Lindenblad"
    ],
    "created": "2017-11-20T05:59:48Z",
    "description": "",
    "id": 32,
    "last_seen": "2018-06-21T13:25:25Z",
    "lat": 38.022,
    "lng": 23.828,
    "location": "",
    "lon": 23.828,
    "min_horizon": 10,
    "name": "SV1QZZ - UHF #2",
    "observations": 6749,
    "qthlocator": "KM18va",
    "status": "Offline"
  },
  {
    "alt": 10,
    "altitude": 10,
    "antenna": [
      "VHF Turnstile"
    ],
    "created": "2017-11-26T17:50:54Z",
    "description": "No rotator RPi with NooElec SMArt dongle and a Wimo TA-1 turnstile antenna loft mounted",
    "id": 33,
    "last_seen": "2018-06-23T04:55:21Z",
    "lat": 54.488,
    "lng": -3.588,
    "location": "",
    "lon": -3.588,
    "min_horizon": 30,
    "name": "G7KSE",
    "observations": 4482,
    "qthlocator": "IO84el",
    "status": "Online"
  },
  {
    "alt": null,
    "altitude": 0,
    "antenna": [
      "UHF Yagi",
      "VHF Yagi"
    ],
    "created": "2017-12-13T18:06:01Z",
    "description": "Main ground station with fixed elevation at 30 degrees but with azimuth rotator",
    "id": 34,
    "last_seen": "2018-02-18T07:53:24Z",
    "lat": 52.996593,
    "lng": -2.195347,
    "location": "",
    "lon": -2.195347,
    "min_horizon": 18,
    "name": "M6LZT ground station",
    "observations": 1865,
    "qthlocator": "IO82vx",
    "status": "Offline"
  },
  {
    "alt": 50,
    "altitude": 50,
    "antenna": [
      "VHF Turnstile",
      "UHF Turnstile",
      "VHF Helical"
    ],
    "created": "2017-12-16T17:30:41Z",
    "description": "Orbit NTNU Ground Station (prev. NTNU Test Satellite) --- Specs: Fedora Linux (headless), x86_64 desktop computer, USRP2 SDR, 2m & 70cm crossed Yagi-Uda beams (RHCP/LHCP) on Az+El rotator. --- Contact: nutsgroup-gs [[funky-a]] nutsgroup [[dot]] org [[dot]] ntnu [[dot]] no",
    "id": 35,
    "last_seen": "2018-06-23T04:55:32Z",
    "lat": 63.41817,
    "lng": 10.39957,
    "location": "",
    "lon": 10.39957,
    "min_horizon": 5,
    "name": "LA1NGS",
    "observations": 6356,
    "qthlocator": "JP53ek",
    "status": "Online"
  },
  {
    "alt": 1641,
    "altitude": 1641,
    "antenna": [
      "UHF Yagi",
      "VHF Yagi"
    ],
    "created": "2017-12-27T19:36:08Z",
    "description": "offsite location in the alps with low noise, operating with pstrotator hamlib interface",
    "id": 36,
    "last_seen": "2018-06-23T04:55:25Z",
    "lat": 46.839383,
    "lng": 15.011715,
    "location": "",
    "lon": 15.011715,
    "min_horizon": 5,
    "name": "oe8rke",
    "observations": 900,
    "qthlocator": "JN76mu",
    "status": "Online"
  },
  {
    "alt": 275,
    "altitude": 275,
    "antenna": [
      "UHF Yagi",
      "VHF Yagi"
    ],
    "created": "2018-01-06T10:04:16Z",
    "description": "Please use the DUV transmitter for AMSAT-FOX satellites!",
    "id": 37,
    "last_seen": "2018-06-23T04:54:51Z",
    "lat": 50.749782,
    "lng": 6.216089,
    "location": "",
    "lon": 6.216089,
    "min_horizon": 1,
    "name": "DL4PD",
    "observations": 5126,
    "qthlocator": "JO30cr",
    "status": "Online"
  },
  {
    "alt": 5,
    "altitude": 5,
    "antenna": [
      "VHF Turnstile"
    ],
    "created": "2018-03-04T10:32:23Z",
    "description": "",
    "id": 38,
    "last_seen": "2018-06-23T04:55:35Z",
    "lat": 46.83592,
    "lng": 7.35009,
    "location": "",
    "lon": 7.35009,
    "min_horizon": 10,
    "name": "Technikraum Lanzenh\u00e4usern",
    "observations": 1919,
    "qthlocator": "JN36qu",
    "status": "Online"
  },
  {
    "alt": 10,
    "altitude": 10,
    "antenna": [
      "VHF Turnstile"
    ],
    "created": "2018-03-09T17:42:56Z",
    "description": "Ground station using a RTLSDR with a Stanislav Palo VHF turnstile antenna. Runs off an RPi3 and uses a Wideband LNA with an FM notch as an amplifier.",
    "id": 39,
    "last_seen": "2018-06-08T18:25:35Z",
    "lat": 52.8344,
    "lng": 6.3785,
    "location": "",
    "lon": 6.3785,
    "min_horizon": 10,
    "name": "CGBSAT-VHF",
    "observations": 1834,
    "qthlocator": "JO32eu",
    "status": "Offline"
  },
  {
    "alt": 10,
    "altitude": 10,
    "antenna": [
      "UHF Turnstile"
    ],
    "created": "2018-03-09T17:43:50Z",
    "description": "Ground station using an RPi3, RTLSDR and homemade UHF corner reflector. Best sensitivity towards the South.",
    "id": 40,
    "last_seen": "2018-06-08T18:26:16Z",
    "lat": 52.8344,
    "lng": 6.3785,
    "location": "",
    "lon": 6.3785,
    "min_horizon": 10,
    "name": "CGBSAT-UHF",
    "observations": 1433,
    "qthlocator": "JO32eu",
    "status": "Offline"
  },
  {
    "alt": 189,
    "altitude": 189,
    "antenna": [
      "HF Dipole"
    ],
    "created": "2018-03-10T23:43:21Z",
    "description": "",
    "id": 41,
    "last_seen": "2018-06-23T04:55:04Z",
    "lat": 41.84,
    "lng": -87.64,
    "location": "",
    "lon": -87.64,
    "min_horizon": 10,
    "name": "Chicago1",
    "observations": 1396,
    "qthlocator": "EN61eu",
    "status": "Online"
  },
  {
    "alt": 100,
    "altitude": 100,
    "antenna": [
      "VHF Turnstile",
      "UHF Turnstile"
    ],
    "created": "2018-03-11T07:32:10Z",
    "description": "",
    "id": 42,
    "last_seen": "2018-05-08T11:43:13Z",
    "lat": 49.29,
    "lng": 4.31,
    "location": "",
    "lon": 4.31,
    "min_horizon": 10,
    "name": "F4GMU",
    "observations": 217,
    "qthlocator": "JN29dg",
    "status": "Offline"
  },
  {
    "alt": 350,
    "altitude": 350,
    "antenna": [
      "UHF Yagi"
    ],
    "created": "2018-03-11T18:25:37Z",
    "description": "RTLSDR V3 + DIY UHF Yagi OR  DIY VHF Yagi + DIY rotator ( https://wiki.satnogs.org/Metal_antenna_rotator ) + \r\n[Big mountain on west]",
    "id": 43,
    "last_seen": "2018-06-23T04:54:48Z",
    "lat": 45.2676834,
    "lng": 5.6080818,
    "location": "",
    "lon": 5.6080818,
    "min_horizon": 20,
    "name": "Grenoble - F4HVX",
    "observations": 1341,
    "qthlocator": "JN25tg",
    "status": "Online"
  },
  {
    "alt": 543,
    "altitude": 543,
    "antenna": [
      "HF Dipole"
    ],
    "created": "2018-03-18T17:17:17Z",
    "description": "First testing with a V-shaped dipole 53.6 cm - 146 MHz",
    "id": 44,
    "last_seen": null,
    "lat": 28.463938,
    "lng": -16.262598,
    "location": "",
    "lon": -16.262598,
    "min_horizon": 10,
    "name": "IAC Testing",
    "observations": 0,
    "qthlocator": "IL18ul",
    "status": "Offline"
  },
  {
    "alt": 10,
    "altitude": 10,
    "antenna": [
      "UHF Lindenblad"
    ],
    "created": "2018-03-20T08:37:56Z",
    "description": "",
    "id": 45,
    "last_seen": null,
    "lat": 27.6162,
    "lng": 85.5399,
    "location": "",
    "lon": 85.5399,
    "min_horizon": 10,
    "name": "Saurav Paudel",
    "observations": 0,
    "qthlocator": "NL27so",
    "status": "Offline"
  },
  {
    "alt": 7,
    "altitude": 7,
    "antenna": [
      "VHF Turnstile"
    ],
    "created": "2018-03-21T09:19:20Z",
    "description": "Testing stuff. So don't panic ;)\r\n\r\nCould be temporarily down b'cause of testing new setup...\r\n\r\nSetup: R820T2, RPI2, inline satellite preamp, 137MHz DIY QFH.\r\n\r\nSince I did two things -- put QFH antenna outside the house in about 6m height and kicked metal shield from USB cable off -- the receiption results of NOAA seems to get better.",
    "id": 46,
    "last_seen": "2018-06-08T17:33:49Z",
    "lat": 53.05561,
    "lng": 8.89172,
    "location": "",
    "lon": 8.89172,
    "min_horizon": 5,
    "name": "DE8MSH",
    "observations": 1046,
    "qthlocator": "JO43kb",
    "status": "Offline"
  },
  {
    "alt": 470,
    "altitude": 470,
    "antenna": [
      "VHF Turnstile",
      "UHF Turnstile"
    ],
    "created": "2018-03-22T12:04:12Z",
    "description": "DB0RV SatNOGS client",
    "id": 47,
    "last_seen": "2018-06-23T04:55:22Z",
    "lat": 47.8067,
    "lng": 9.633,
    "location": "",
    "lon": 9.633,
    "min_horizon": 4,
    "name": "DB0RV",
    "observations": 2191,
    "qthlocator": "JN47tt",
    "status": "Online"
  },
  {
    "alt": 655,
    "altitude": 655,
    "antenna": [
      "HF Dipole",
      "UHF Yagi",
      "L Helical",
      "VHF Quadrafilar"
    ],
    "created": "2018-03-22T15:19:32Z",
    "description": "",
    "id": 48,
    "last_seen": "2018-04-25T14:22:00Z",
    "lat": 40.4442,
    "lng": -3.9527,
    "location": "",
    "lon": -3.9527,
    "min_horizon": 5,
    "name": "ESAC Ground Station",
    "observations": 52,
    "qthlocator": "IN80ak",
    "status": "Offline"
  },
  {
    "alt": 10,
    "altitude": 10,
    "antenna": [
      "UHF Yagi",
      "VHF Yagi"
    ],
    "created": "2018-03-24T01:06:46Z",
    "description": "AMSAT OZ ground station. Wimo VHF/UHF X-Quads with preamp and bandpass filters. Yaesu G-5500 rotator with G6LVB computer interface. Airspy One connected to PC (AMD Athlon II X4 620) running Ubuntu server 16.04.",
    "id": 49,
    "last_seen": "2018-06-23T04:55:29Z",
    "lat": 55.634,
    "lng": 12.601,
    "location": "",
    "lon": 12.601,
    "min_horizon": 10,
    "name": "OZ7SAT",
    "observations": 2032,
    "qthlocator": "JO65hp",
    "status": "Online"
  },
  {
    "alt": 8,
    "altitude": 8,
    "antenna": [
      "UHF Eggbeater"
    ],
    "created": "2018-03-24T12:09:00Z",
    "description": "UHF omni eggbeater antenna with UHF preamplifier",
    "id": 50,
    "last_seen": "2018-05-06T19:34:58Z",
    "lat": 29.854689,
    "lng": -96.53481,
    "location": "",
    "lon": -96.53481,
    "min_horizon": 3,
    "name": "N5CNB-UHF",
    "observations": 622,
    "qthlocator": "EL19ru",
    "status": "Offline"
  },
  {
    "alt": 200,
    "altitude": 200,
    "antenna": [
      "VHF Turnstile"
    ],
    "created": "2018-03-25T08:49:39Z",
    "description": "",
    "id": 51,
    "last_seen": "2018-05-05T09:03:23Z",
    "lat": 52.467,
    "lng": -2.022,
    "location": "",
    "lon": -2.022,
    "min_horizon": 0,
    "name": "G4DPZ VHF Turnstile",
    "observations": 3,
    "qthlocator": "IO82xl",
    "status": "Offline"
  },
  {
    "alt": 64,
    "altitude": 64,
    "antenna": [
      "HF Dipole"
    ],
    "created": "2018-03-26T03:53:34Z",
    "description": "",
    "id": 52,
    "last_seen": "2018-04-14T14:09:44Z",
    "lat": 30.5862,
    "lng": -90.498159,
    "location": "",
    "lon": -90.498159,
    "min_horizon": 45,
    "name": "KA5TTZ",
    "observations": 1,
    "qthlocator": "EM40so",
    "status": "Offline"
  },
  {
    "alt": 138,
    "altitude": 138,
    "antenna": [
      "UHF Turnstile"
    ],
    "created": "2018-03-26T14:47:12Z",
    "description": "This station uses a SatNogs Raspbian on a Raspberry Pi 3B.",
    "id": 53,
    "last_seen": null,
    "lat": 51.932131,
    "lng": 12.710188,
    "location": "",
    "lon": 12.710188,
    "min_horizon": 10,
    "name": "Schinderberge 70cm",
    "observations": 0,
    "qthlocator": "JO61iw",
    "status": "Offline"
  },
  {
    "alt": 43,
    "altitude": 43,
    "antenna": [
      "VHF Lindenblad"
    ],
    "created": "2018-03-26T21:56:09Z",
    "description": "",
    "id": 54,
    "last_seen": "2018-06-23T04:55:42Z",
    "lat": 42.291,
    "lng": -71.297,
    "location": "",
    "lon": -71.297,
    "min_horizon": 20,
    "name": "IntimelyEights-vhf",
    "observations": 333,
    "qthlocator": "FN42ig",
    "status": "Testing"
  },
  {
    "alt": 46,
    "altitude": 46,
    "antenna": [
      "UHF Lindenblad"
    ],
    "created": "2018-03-26T22:05:17Z",
    "description": "",
    "id": 55,
    "last_seen": "2018-06-23T04:55:43Z",
    "lat": 42.291,
    "lng": -71.297,
    "location": "",
    "lon": -71.297,
    "min_horizon": 20,
    "name": "IntimelyEights-uhf",
    "observations": 33,
    "qthlocator": "FN42ig",
    "status": "Testing"
  },
  {
    "alt": 45,
    "altitude": 45,
    "antenna": [
      "VHF Quadrafilar"
    ],
    "created": "2018-03-28T09:38:34Z",
    "description": "QFH Antenna",
    "id": 56,
    "last_seen": "2018-06-23T04:54:45Z",
    "lat": -46.2128,
    "lng": 168.333,
    "location": "",
    "lon": 168.333,
    "min_horizon": 10,
    "name": "ZL4VBJ",
    "observations": 1277,
    "qthlocator": "RE43ds",
    "status": "Online"
  },
  {
    "alt": 80,
    "altitude": 80,
    "antenna": [
      "VHF Turnstile"
    ],
    "created": "2018-03-28T16:05:40Z",
    "description": "",
    "id": 57,
    "last_seen": "2018-06-23T04:55:41Z",
    "lat": 37.931,
    "lng": 23.528,
    "location": "",
    "lon": 23.528,
    "min_horizon": 10,
    "name": "Selinia",
    "observations": 58,
    "qthlocator": "KM17sw",
    "status": "Testing"
  },
  {
    "alt": 10,
    "altitude": 10,
    "antenna": [
      "VHF Turnstile"
    ],
    "created": "2018-03-28T19:10:41Z",
    "description": "Some problems with DNR, should work as expected.\r\n \r\nThis prod stations belongs to SR1GEO groundstation. It is a 1U rack SatNOGS receiver.",
    "id": 58,
    "last_seen": "2018-06-23T04:55:16Z",
    "lat": 53.340457,
    "lng": 15.05798,
    "location": "",
    "lon": 15.05798,
    "min_horizon": 10,
    "name": "SR1GEO_RACK01",
    "observations": 1695,
    "qthlocator": "JO73mi",
    "status": "Online"
  },
  {
    "alt": 49,
    "altitude": 49,
    "antenna": [
      "HF Dipole"
    ],
    "created": "2018-03-28T19:11:06Z",
    "description": "",
    "id": 59,
    "last_seen": "2018-06-23T04:55:17Z",
    "lat": 49.217,
    "lng": -122.91,
    "location": "",
    "lon": -122.91,
    "min_horizon": 10,
    "name": "Aardvark Station #1",
    "observations": 75,
    "qthlocator": "CN89nf",
    "status": "Testing"
  },
  {
    "alt": 3,
    "altitude": 3,
    "antenna": [
      "VHF Quadrafilar"
    ],
    "created": "2018-03-29T08:47:28Z",
    "description": "",
    "id": 60,
    "last_seen": null,
    "lat": 49.038474,
    "lng": 1.94413,
    "location": "",
    "lon": 1.94413,
    "min_horizon": 10,
    "name": "Bart Mercier",
    "observations": 0,
    "qthlocator": "JN09xa",
    "status": "Offline"
  },
  {
    "alt": 5,
    "altitude": 5,
    "antenna": [
      "UHF Helical",
      "VHF Helical",
      "UHF Helical"
    ],
    "created": "2018-03-30T13:47:12Z",
    "description": "First TEONITE ground station",
    "id": 61,
    "last_seen": "2018-04-02T18:21:40Z",
    "lat": 53.378957,
    "lng": 14.469831,
    "location": "",
    "lon": 14.469831,
    "min_horizon": 10,
    "name": "TEONITE-001",
    "observations": 14,
    "qthlocator": "JO73fj",
    "status": "Offline"
  },
  {
    "alt": 1499,
    "altitude": 1499,
    "antenna": [
      "VHF Turnstile"
    ],
    "created": "2018-03-30T18:05:48Z",
    "description": "",
    "id": 62,
    "last_seen": "2018-06-23T04:55:25Z",
    "lat": -26.709,
    "lng": 27.834,
    "location": "",
    "lon": 27.834,
    "min_horizon": 10,
    "name": "ZR6TG Sat Ground Station (VHF)",
    "observations": 1207,
    "qthlocator": "KG33wg",
    "status": "Online"
  },
  {
    "alt": 117,
    "altitude": 117,
    "antenna": [
      "UHF Helical",
      "VHF Turnstile",
      "VHF Helical"
    ],
    "created": "2018-03-30T18:34:41Z",
    "description": "Just for tests",
    "id": 63,
    "last_seen": "2018-04-01T19:19:30Z",
    "lat": 44.751862,
    "lng": 4.822396,
    "location": "",
    "lon": 4.822396,
    "min_horizon": 15,
    "name": "SWL Electroalex26",
    "observations": 7,
    "qthlocator": "JN24js",
    "status": "Offline"
  },
  {
    "alt": 320,
    "altitude": 320,
    "antenna": [],
    "created": "2018-03-31T19:44:31Z",
    "description": "",
    "id": 64,
    "last_seen": null,
    "lat": 40.330361,
    "lng": -84.216254,
    "location": "",
    "lon": -84.216254,
    "min_horizon": 10,
    "name": "Dale Kubichek",
    "observations": 0,
    "qthlocator": "EN70vh",
    "status": "Offline"
  },
  {
    "alt": 7,
    "altitude": 7,
    "antenna": [
      "VHF Turnstile"
    ],
    "created": "2018-04-01T09:54:14Z",
    "description": "",
    "id": 65,
    "last_seen": "2018-06-23T04:54:50Z",
    "lat": -27.8635,
    "lng": 153.3152,
    "location": "",
    "lon": 153.3152,
    "min_horizon": 10,
    "name": "QG62",
    "observations": 96,
    "qthlocator": "QG62pd",
    "status": "Testing"
  },
  {
    "alt": 275,
    "altitude": 275,
    "antenna": [
      "UHF Yagi"
    ],
    "created": "2018-04-01T12:36:31Z",
    "description": "Arrow UHF Corner Reflector, Fixed 20 Deg Elevation & Pointed 180 Deg South,  AMSAT LNA,, MFJ Duplexer, \r\n Raspberry Pi3b",
    "id": 66,
    "last_seen": "2018-06-23T04:54:57Z",
    "lat": 42.209,
    "lng": -85.6075,
    "location": "",
    "lon": -85.6075,
    "min_horizon": 5,
    "name": "KE8FZT - UHF",
    "observations": 1243,
    "qthlocator": "EN72ef",
    "status": "Online"
  },
  {
    "alt": 119,
    "altitude": 119,
    "antenna": [
      "UHF Helical",
      "UHF Eggbeater"
    ],
    "created": "2018-04-01T15:34:52Z",
    "description": "",
    "id": 67,
    "last_seen": "2018-06-23T04:55:05Z",
    "lat": 43.641937,
    "lng": 3.929062,
    "location": "",
    "lon": 3.929062,
    "min_horizon": 15,
    "name": "Massena",
    "observations": 383,
    "qthlocator": "JN13xp",
    "status": "Testing"
  },
  {
    "alt": 1034,
    "altitude": 1034,
    "antenna": [
      "VHF Turnstile"
    ],
    "created": "2018-04-01T20:09:30Z",
    "description": "",
    "id": 68,
    "last_seen": "2018-06-23T04:55:41Z",
    "lat": 47.094166,
    "lng": 9.900062,
    "location": "",
    "lon": 9.900062,
    "min_horizon": 10,
    "name": "stoffl",
    "observations": 30,
    "qthlocator": "JN47wc",
    "status": "Testing"
  },
  {
    "alt": 17,
    "altitude": 17,
    "antenna": [
      "VHF Yagi"
    ],
    "created": "2018-04-02T21:32:08Z",
    "description": "",
    "id": 69,
    "last_seen": "2018-04-03T10:18:02Z",
    "lat": 19.022,
    "lng": 72.857,
    "location": "",
    "lon": 72.857,
    "min_horizon": 10,
    "name": "VJTI Satellite Club",
    "observations": 1,
    "qthlocator": "MK69ka",
    "status": "Offline"
  },
  {
    "alt": 37,
    "altitude": 37,
    "antenna": [
      "VHF Turnstile"
    ],
    "created": "2018-04-03T18:42:14Z",
    "description": "",
    "id": 70,
    "last_seen": "2018-05-22T20:04:38Z",
    "lat": 55.83904,
    "lng": 12.39592,
    "location": "",
    "lon": 12.39592,
    "min_horizon": 10,
    "name": "OZ6BL-VHF",
    "observations": 78,
    "qthlocator": "JO65eu",
    "status": "Offline"
  },
  {
    "alt": 90,
    "altitude": 90,
    "antenna": [
      "UHF Yagi"
    ],
    "created": "2018-04-03T19:21:49Z",
    "description": "UHF Helical and Cir Pol VHF",
    "id": 71,
    "last_seen": null,
    "lat": 2.8125,
    "lng": -60.732422,
    "location": "",
    "lon": -60.732422,
    "min_horizon": 1,
    "name": "PV8DX",
    "observations": 0,
    "qthlocator": "FJ92pt",
    "status": "Offline"
  },
  {
    "alt": 8,
    "altitude": 8,
    "antenna": [
      "HF Dipole"
    ],
    "created": "2018-04-05T13:35:42Z",
    "description": "Third attempt.",
    "id": 72,
    "last_seen": "2018-06-23T04:55:18Z",
    "lat": 54.705693,
    "lng": 25.379382,
    "location": "",
    "lon": 25.379382,
    "min_horizon": 10,
    "name": "Rokantiskes",
    "observations": 48,
    "qthlocator": "KO24qq",
    "status": "Testing"
  },
  {
    "alt": 130,
    "altitude": 130,
    "antenna": [
      "VHF Yagi",
      "VHF Yagi"
    ],
    "created": "2018-04-06T16:56:27Z",
    "description": "This Station is Offline!\r\nNew Station is at https://network-dev.satnogs.org/stations/252/",
    "id": 73,
    "last_seen": "2018-04-18T16:17:16Z",
    "lat": 51.03004792,
    "lng": 13.77913526,
    "location": "",
    "lon": 13.77913526,
    "min_horizon": 60,
    "name": "Gruna Test Station",
    "observations": 39,
    "qthlocator": "JO61va",
    "status": "Offline"
  },
  {
    "alt": 100,
    "altitude": 100,
    "antenna": [
      "UHF Yagi",
      "VHF Yagi",
      "VHF Quadrafilar"
    ],
    "created": "2018-04-07T18:45:51Z",
    "description": "RX SDRLAY RSP1 / RSP1A / IC9100",
    "id": 74,
    "last_seen": null,
    "lat": 41.706047,
    "lng": -73.8954,
    "location": "",
    "lon": -73.8954,
    "min_horizon": 1,
    "name": "Rocky",
    "observations": 0,
    "qthlocator": "FN31bq",
    "status": "Offline"
  },
  {
    "alt": 600,
    "altitude": 600,
    "antenna": [
      "VHF Quadrafilar"
    ],
    "created": "2018-04-08T18:42:51Z",
    "description": "",
    "id": 75,
    "last_seen": "2018-04-14T19:43:44Z",
    "lat": 36.06,
    "lng": -115.18,
    "location": "",
    "lon": -115.18,
    "min_horizon": 10,
    "name": "N8BSD-VHF-1",
    "observations": 106,
    "qthlocator": "DM26jb",
    "status": "Offline"
  },
  {
    "alt": 3,
    "altitude": 3,
    "antenna": [
      "VHF Lindenblad",
      "UHF Lindenblad"
    ],
    "created": "2018-04-09T11:15:33Z",
    "description": "New station setup",
    "id": 76,
    "last_seen": null,
    "lat": 50.836273,
    "lng": 6.071981,
    "location": "",
    "lon": 6.071981,
    "min_horizon": 10,
    "name": "Herzogenrath",
    "observations": 0,
    "qthlocator": "JO30au",
    "status": "Offline"
  },
  {
    "alt": 6,
    "altitude": 6,
    "antenna": [
      "VHF Eggbeater"
    ],
    "created": "2018-04-09T14:13:32Z",
    "description": "Eggbeater antenna with preamplifier",
    "id": 77,
    "last_seen": "2018-04-20T09:18:47Z",
    "lat": 29.855,
    "lng": -96.535,
    "location": "",
    "lon": -96.535,
    "min_horizon": 5,
    "name": "N5CNB-VHF",
    "observations": 174,
    "qthlocator": "EL19ru",
    "status": "Offline"
  },
  {
    "alt": 168,
    "altitude": 168,
    "antenna": [
      "HF Dipole"
    ],
    "created": "2018-04-09T16:38:02Z",
    "description": "work in progress...",
    "id": 78,
    "last_seen": "2018-04-24T11:16:21Z",
    "lat": 51.45274,
    "lng": 7.96972,
    "location": "",
    "lon": 7.96972,
    "min_horizon": 10,
    "name": "DO9SD",
    "observations": 0,
    "qthlocator": "JO31xk",
    "status": "Offline"
  },
  {
    "alt": 20,
    "altitude": 20,
    "antenna": [
      "HF Dipole"
    ],
    "created": "2018-04-10T01:36:29Z",
    "description": "Test station at Utah State University",
    "id": 79,
    "last_seen": "2018-04-10T06:35:40Z",
    "lat": 41.737,
    "lng": -111.8338,
    "location": "",
    "lon": -111.8338,
    "min_horizon": 20,
    "name": "N7GAS-1",
    "observations": 2,
    "qthlocator": "DN41br",
    "status": "Offline"
  },
  {
    "alt": 80,
    "altitude": 80,
    "antenna": [
      "VHF Lindenblad"
    ],
    "created": "2018-04-10T18:22:06Z",
    "description": "",
    "id": 80,
    "last_seen": null,
    "lat": 37.9556463,
    "lng": 23.7199816,
    "location": "",
    "lon": 23.7199816,
    "min_horizon": 10,
    "name": "SV1RVP/NOA/VHF",
    "observations": 0,
    "qthlocator": "KM17uw",
    "status": "Offline"
  },
  {
    "alt": 80,
    "altitude": 80,
    "antenna": [
      "UHF Helical"
    ],
    "created": "2018-04-10T18:23:41Z",
    "description": "",
    "id": 81,
    "last_seen": null,
    "lat": 37.9556463,
    "lng": 23.7199816,
    "location": "",
    "lon": 23.7199816,
    "min_horizon": 10,
    "name": "SV1RVP/NOA/UHF",
    "observations": 0,
    "qthlocator": "KM17uw",
    "status": "Offline"
  },
  {
    "alt": 80,
    "altitude": 80,
    "antenna": [
      "UHF Helical"
    ],
    "created": "2018-04-10T18:26:18Z",
    "description": "",
    "id": 82,
    "last_seen": null,
    "lat": 37.9556463,
    "lng": 23.7199816,
    "location": "",
    "lon": 23.7199816,
    "min_horizon": 10,
    "name": "SV1RVP/Portable",
    "observations": 0,
    "qthlocator": "KM17uw",
    "status": "Offline"
  },
  {
    "alt": 5,
    "altitude": 5,
    "antenna": [
      "VHF Lindenblad"
    ],
    "created": "2018-04-11T09:40:19Z",
    "description": "",
    "id": 83,
    "last_seen": "2018-06-23T04:54:54Z",
    "lat": 44.6257,
    "lng": 26.1241,
    "location": "",
    "lon": 26.1241,
    "min_horizon": 10,
    "name": "YO3GCF-VHF-1",
    "observations": 48,
    "qthlocator": "KN34bp",
    "status": "Testing"
  },
  {
    "alt": 661,
    "altitude": 661,
    "antenna": [
      "VHF Yagi"
    ],
    "created": "2018-04-12T21:16:50Z",
    "description": "",
    "id": 84,
    "last_seen": "2018-04-15T15:38:36Z",
    "lat": 40.372993,
    "lng": -3.919725,
    "location": "",
    "lon": -3.919725,
    "min_horizon": 10,
    "name": "AirDivision_UEM_GroundStation",
    "observations": 1,
    "qthlocator": "IN80ai",
    "status": "Offline"
  },
  {
    "alt": 7,
    "altitude": 7,
    "antenna": [
      "VHF Lindenblad"
    ],
    "created": "2018-04-13T17:52:59Z",
    "description": "",
    "id": 85,
    "last_seen": "2018-06-09T10:21:30Z",
    "lat": 51.974237,
    "lng": 9.865202,
    "location": "",
    "lon": 9.865202,
    "min_horizon": 10,
    "name": "Alfeld",
    "observations": 177,
    "qthlocator": "JO41wx",
    "status": "Offline"
  },
  {
    "alt": 120,
    "altitude": 120,
    "antenna": [
      "VHF Turnstile"
    ],
    "created": "2018-04-14T14:10:06Z",
    "description": "",
    "id": 86,
    "last_seen": "2018-06-23T04:55:11Z",
    "lat": 51.4966392,
    "lng": -0.17218,
    "location": "",
    "lon": -0.17218,
    "min_horizon": 10,
    "name": "Victoria and Albert Museum",
    "observations": 29,
    "qthlocator": "IO91vl",
    "status": "Testing"
  },
  {
    "alt": 30,
    "altitude": 30,
    "antenna": [
      "VHF Turnstile"
    ],
    "created": "2018-04-15T13:55:20Z",
    "description": "15.04.2018, Testing software with temporary home rig location, 23.04.2018, Home rig set, added LNA and filter for 145M band. Enjoy! 26.04.2018, Rig won't get 137M, 07.05.2018, Updated to 0.6.1.",
    "id": 87,
    "last_seen": "2018-06-23T04:55:25Z",
    "lat": 51.245,
    "lng": -0.558,
    "location": "",
    "lon": -0.558,
    "min_horizon": 20,
    "name": "M0IEB",
    "observations": 550,
    "qthlocator": "IO91rf",
    "status": "Testing"
  },
  {
    "alt": 10,
    "altitude": 10,
    "antenna": [
      "UHF Yagi"
    ],
    "created": "2018-04-15T20:59:53Z",
    "description": "",
    "id": 88,
    "last_seen": "2018-06-21T17:07:59Z",
    "lat": 57.013805,
    "lng": 9.987389,
    "location": "",
    "lon": 9.987389,
    "min_horizon": 10,
    "name": "AAUSAT-GND testing, look away",
    "observations": 0,
    "qthlocator": "JO47xa",
    "status": "Offline"
  },
  {
    "alt": 176,
    "altitude": 176,
    "antenna": [
      "UHF Eggbeater"
    ],
    "created": "2018-04-17T04:55:37Z",
    "description": "Testing - KA4JWB",
    "id": 89,
    "last_seen": "2018-06-23T04:55:09Z",
    "lat": 36.848,
    "lng": -87.55,
    "location": "",
    "lon": -87.55,
    "min_horizon": 10,
    "name": "ka4jwb-1",
    "observations": 8,
    "qthlocator": "EM66fu",
    "status": "Testing"
  },
  {
    "alt": 50,
    "altitude": 50,
    "antenna": [
      "VHF Eggbeater"
    ],
    "created": "2018-04-22T20:12:13Z",
    "description": "",
    "id": 90,
    "last_seen": "2018-04-23T21:44:51Z",
    "lat": 55.858685,
    "lng": -3.073789,
    "location": "",
    "lon": -3.073789,
    "min_horizon": 12,
    "name": "MM0SRY",
    "observations": 11,
    "qthlocator": "IO85lu",
    "status": "Offline"
  },
  {
    "alt": 60,
    "altitude": 60,
    "antenna": [
      "VHF Quadrafilar"
    ],
    "created": "2018-04-24T07:39:25Z",
    "description": "Timestep Stainless Steel QFH + LNA",
    "id": 91,
    "last_seen": "2018-06-23T04:55:19Z",
    "lat": 50.77,
    "lng": -2.02,
    "location": "",
    "lon": -2.02,
    "min_horizon": 20,
    "name": "VHF QFH Minikits LNA RTL-SDR",
    "observations": 1623,
    "qthlocator": "IO80xs",
    "status": "Online"
  },
  {
    "alt": 180,
    "altitude": 180,
    "antenna": [
      "HF Dipole"
    ],
    "created": "2018-04-25T18:22:34Z",
    "description": "2018/04/25 - Testing initial configuration.",
    "id": 92,
    "last_seen": "2018-06-23T04:55:12Z",
    "lat": 45.05265,
    "lng": -83.45755,
    "location": "",
    "lon": -83.45755,
    "min_horizon": 10,
    "name": "APN01",
    "observations": 60,
    "qthlocator": "EN85gb",
    "status": "Testing"
  },
  {
    "alt": 710,
    "altitude": 710,
    "antenna": [
      "UHF Yagi"
    ],
    "created": "2018-04-27T08:51:53Z",
    "description": "",
    "id": 93,
    "last_seen": "2018-06-23T04:55:17Z",
    "lat": 41.6621,
    "lng": -4.7055,
    "location": "",
    "lon": -4.7055,
    "min_horizon": 5,
    "name": "GS UVA",
    "observations": 126,
    "qthlocator": "IN71pp",
    "status": "Testing"
  },
  {
    "alt": 6,
    "altitude": 6,
    "antenna": [
      "VHF Turnstile"
    ],
    "created": "2018-04-28T01:11:24Z",
    "description": "Pi3/RTL-SDR based ground station",
    "id": 94,
    "last_seen": "2018-05-07T11:04:21Z",
    "lat": -34.448,
    "lng": 138.383,
    "location": "",
    "lon": 138.383,
    "min_horizon": 10,
    "name": "AHV-VHF",
    "observations": 24,
    "qthlocator": "PF95en",
    "status": "Offline"
  },
  {
    "alt": 6,
    "altitude": 6,
    "antenna": [
      "UHF Turnstile"
    ],
    "created": "2018-04-28T01:18:15Z",
    "description": "Pi3/RTL-SDR based ground station",
    "id": 95,
    "last_seen": "2018-05-07T11:04:19Z",
    "lat": -34.448,
    "lng": 138.383,
    "location": "",
    "lon": 138.383,
    "min_horizon": 10,
    "name": "AHV-UHF",
    "observations": 28,
    "qthlocator": "PF95en",
    "status": "Offline"
  },
  {
    "alt": 10,
    "altitude": 10,
    "antenna": [
      "VHF Quadrafilar"
    ],
    "created": "2018-04-28T11:51:34Z",
    "description": "",
    "id": 96,
    "last_seen": "2018-06-23T04:55:10Z",
    "lat": -33.62,
    "lng": 151.33,
    "location": "",
    "lon": 151.33,
    "min_horizon": 10,
    "name": "sam210723 VHF",
    "observations": 371,
    "qthlocator": "QF56pj",
    "status": "Online"
  },
  {
    "alt": 612,
    "altitude": 612,
    "antenna": [
      "UHF Turnstile"
    ],
    "created": "2018-05-01T18:32:58Z",
    "description": "Actually a UHF QFH without balun, UHF LNA, 20m of PCTEL PFP400 RF cable with RTL-SDR with TCXO on Rpi2. Some big palms trees to the South",
    "id": 97,
    "last_seen": "2018-06-23T04:55:32Z",
    "lat": 24.7708,
    "lng": 46.7083,
    "location": "",
    "lon": 46.7083,
    "min_horizon": 10,
    "name": "RIYADH1",
    "observations": 1040,
    "qthlocator": "LL34is",
    "status": "Testing"
  },
  {
    "alt": 62,
    "altitude": 62,
    "antenna": [
      "UHF Lindenblad"
    ],
    "created": "2018-05-03T19:28:09Z",
    "description": "Running on a Raspberry Pi 3 B+. with Airspy.   Sample rate was reduced to 2.5E6 and automatic decoding began on June 8, 2018.   Raspberry Pi was not able to ingest all data from Airspy at default sample rate of 10E6.  investigating USB isolation techniques to limit EMI from R Pi into Airspy",
    "id": 98,
    "last_seen": "2018-06-23T04:55:40Z",
    "lat": 42.31404,
    "lng": -71.44789,
    "location": "",
    "lon": -71.44789,
    "min_horizon": 20,
    "name": "Grove-UHF-01",
    "observations": 606,
    "qthlocator": "FN42gh",
    "status": "Online"
  },
  {
    "alt": 2,
    "altitude": 2,
    "antenna": [
      "VHF Turnstile"
    ],
    "created": "2018-05-05T08:39:39Z",
    "description": "",
    "id": 99,
    "last_seen": "2018-05-06T10:28:47Z",
    "lat": -34.828889,
    "lng": 138.499167,
    "location": "",
    "lon": 138.499167,
    "min_horizon": 15,
    "name": "VK5JO-2M-TEST",
    "observations": 48,
    "qthlocator": "PF95fe",
    "status": "Offline"
  },
  {
    "alt": 20,
    "altitude": 20,
    "antenna": [
      "VHF Yagi"
    ],
    "created": "2018-05-07T11:33:43Z",
    "description": "",
    "id": 100,
    "last_seen": null,
    "lat": 37.9556463,
    "lng": 23.7199816,
    "location": "",
    "lon": 23.7199816,
    "min_horizon": 10,
    "name": "SV1RVP",
    "observations": 0,
    "qthlocator": "KM17uw",
    "status": "Offline"
  },
  {
    "alt": 110,
    "altitude": 110,
    "antenna": [
      "VHF Turnstile"
    ],
    "created": "2018-05-07T19:36:42Z",
    "description": "DIY VHF Turnstile + FM BC block filter + preamp.\r\nHave a high horizon (min 45deg) on the north-east, do not select\r\ntoo low satellites in this direction.",
    "id": 101,
    "last_seen": "2018-06-23T04:54:50Z",
    "lat": 48.64358,
    "lng": 2.231068,
    "location": "",
    "lon": 2.231068,
    "min_horizon": 10,
    "name": "Marcs",
    "observations": 640,
    "qthlocator": "JN18cp",
    "status": "Online"
  },
  {
    "alt": 10,
    "altitude": 10,
    "antenna": [
      "VHF Yagi"
    ],
    "created": "2018-05-09T19:58:52Z",
    "description": "Double VHF Moxon antenna mounted at fixed elevation of 20 degrees. Currently also at fixed azimuth pointing north, since the rotator is not computer controlled yet. Only one of the two moxons is currently connected, so fading is expected. I will add a phasing/delay harness for circular polarization later. During day time there is interference from my solar panels. Using Odroid U3 and Airspy Mini.",
    "id": 102,
    "last_seen": "2018-06-23T04:55:43Z",
    "lat": 51.4719052,
    "lng": 5.5584172,
    "location": "",
    "lon": 5.5584172,
    "min_horizon": 10,
    "name": "PA3RVG VHF Moxon",
    "observations": 564,
    "qthlocator": "JO21sl",
    "status": "Online"
  },
  {
    "alt": 65,
    "altitude": 65,
    "antenna": [],
    "created": "2018-05-12T11:22:14Z",
    "description": "",
    "id": 103,
    "last_seen": null,
    "lat": 14.746722,
    "lng": 121.03722,
    "location": "",
    "lon": 121.03722,
    "min_horizon": 10,
    "name": "DINO",
    "observations": 0,
    "qthlocator": "PK04mr",
    "status": "Offline"
  },
  {
    "alt": 8,
    "altitude": 8,
    "antenna": [
      "VHF Quadrafilar"
    ],
    "created": "2018-05-14T20:02:01Z",
    "description": "",
    "id": 104,
    "last_seen": "2018-06-07T06:17:50Z",
    "lat": 47.801,
    "lng": 9.41133,
    "location": "",
    "lon": 9.41133,
    "min_horizon": 10,
    "name": "DJ0LRC",
    "observations": 97,
    "qthlocator": "JN47qt",
    "status": "Offline"
  },
  {
    "alt": 16,
    "altitude": 16,
    "antenna": [
      "VHF Eggbeater"
    ],
    "created": "2018-05-16T15:32:16Z",
    "description": "",
    "id": 105,
    "last_seen": "2018-06-23T04:55:15Z",
    "lat": 39.9105,
    "lng": -75.0497,
    "location": "",
    "lon": -75.0497,
    "min_horizon": 20,
    "name": "KU2Y",
    "observations": 292,
    "qthlocator": "FM29lv",
    "status": "Testing"
  },
  {
    "alt": 50,
    "altitude": 50,
    "antenna": [
      "UHF Yagi"
    ],
    "created": "2018-05-18T13:12:41Z",
    "description": "Berlin Experimental and Educational Ground Station (BEEGND) at TU Berlin build as part of a students project.",
    "id": 106,
    "last_seen": "2018-06-12T11:59:09Z",
    "lat": 52.51216,
    "lng": 13.32603,
    "location": "",
    "lon": 13.32603,
    "min_horizon": 10,
    "name": "BEEGND",
    "observations": 1,
    "qthlocator": "JO62pm",
    "status": "Offline"
  },
  {
    "alt": 227,
    "altitude": 227,
    "antenna": [
      "UHF Yagi",
      "VHF Yagi"
    ],
    "created": "2018-05-18T14:25:10Z",
    "description": "Demo Station for Hamvention event demo purposes. https://hamvention.org",
    "id": 107,
    "last_seen": "2018-05-20T16:09:53Z",
    "lat": 39.700479,
    "lng": -83.939205,
    "location": "",
    "lon": -83.939205,
    "min_horizon": 10,
    "name": "Hamvention Demo Station",
    "observations": 14,
    "qthlocator": "EM89aq",
    "status": "Offline"
  },
  {
    "alt": 307,
    "altitude": 307,
    "antenna": [
      "UHF Yagi",
      "VHF Yagi"
    ],
    "created": "2018-05-19T15:44:35Z",
    "description": "",
    "id": 108,
    "last_seen": null,
    "lat": 29.612517,
    "lng": 106.512097,
    "location": "",
    "lon": 106.512097,
    "min_horizon": 10,
    "name": "bg8ixq",
    "observations": 0,
    "qthlocator": "OL39go",
    "status": "Offline"
  },
  {
    "alt": 100,
    "altitude": 100,
    "antenna": [
      "UHF Yagi"
    ],
    "created": "2018-05-20T12:11:50Z",
    "description": "UHF-VHF  KLM ANTENNAS ROTATOR KENPRO  5600B\r\nUHF-VHF M2 ANTENNAS ROTATOR YAESU 1000+YAESU G-550\r\nG3RUH 9600BAUD MODEM\r\nG3RUH 1200 BPSK MODEM\r\nTNC2 1200 AFSK MODEM\r\nFT-736\r\nKENWOOD TS-2000X",
    "id": 109,
    "last_seen": "2018-06-23T04:54:49Z",
    "lat": 39.5666,
    "lng": 3.2095,
    "location": "",
    "lon": 3.2095,
    "min_horizon": 10,
    "name": "EA6WQ - Tomas Orzaez",
    "observations": 18,
    "qthlocator": "JM19on",
    "status": "Online"
  },
  {
    "alt": 25,
    "altitude": 25,
    "antenna": [
      "VHF Quadrafilar"
    ],
    "created": "2018-05-25T12:56:42Z",
    "description": "",
    "id": 110,
    "last_seen": "2018-06-02T07:24:34Z",
    "lat": 49.7625772,
    "lng": 15.9192975,
    "location": "",
    "lon": 15.9192975,
    "min_horizon": 10,
    "name": "ok1phu-1",
    "observations": 56,
    "qthlocator": "JN79xs",
    "status": "Offline"
  },
  {
    "alt": 12,
    "altitude": 12,
    "antenna": [
      "UHF Eggbeater"
    ],
    "created": "2018-05-26T12:22:22Z",
    "description": "Antenna is is not at final position yet.",
    "id": 111,
    "last_seen": "2018-06-21T08:53:19Z",
    "lat": 52.102,
    "lng": 5.1797,
    "location": "",
    "lon": 5.1797,
    "min_horizon": 30,
    "name": "Lacuna1",
    "observations": 159,
    "qthlocator": "JO22oc",
    "status": "Offline"
  },
  {
    "alt": 12,
    "altitude": 12,
    "antenna": [
      "UHF Yagi",
      "VHF Yagi"
    ],
    "created": "2018-05-27T02:40:42Z",
    "description": "",
    "id": 112,
    "last_seen": null,
    "lat": 1.524543,
    "lng": 103.789807,
    "location": "",
    "lon": 103.789807,
    "min_horizon": 10,
    "name": "9w2gee",
    "observations": 0,
    "qthlocator": "OJ11vm",
    "status": "Offline"
  },
  {
    "alt": 100,
    "altitude": 100,
    "antenna": [
      "VHF Turnstile"
    ],
    "created": "2018-05-27T11:04:54Z",
    "description": "Under construction:\r\n2 Meter Turnstile antenna - LNA - Bias Tee - RTL-SDR - Raspberry Pi",
    "id": 113,
    "last_seen": "2018-06-23T00:42:04Z",
    "lat": 47.4913509,
    "lng": -121.7843942,
    "location": "",
    "lon": -121.7843942,
    "min_horizon": 25,
    "name": "WA4OSH",
    "observations": 3,
    "qthlocator": "CN97cl",
    "status": "Offline"
  },
  {
    "alt": 12,
    "altitude": 12,
    "antenna": [
      "HF Dipole"
    ],
    "created": "2018-05-27T20:21:40Z",
    "description": "",
    "id": 114,
    "last_seen": "2018-05-27T20:50:45Z",
    "lat": 50.258198,
    "lng": 19.577813,
    "location": "",
    "lon": 19.577813,
    "min_horizon": 10,
    "name": "st1",
    "observations": 0,
    "qthlocator": "JO90sg",
    "status": "Offline"
  },
  {
    "alt": 10,
    "altitude": 10,
    "antenna": [
      "HF Dipole"
    ],
    "created": "2018-05-28T17:19:25Z",
    "description": "A test station",
    "id": 115,
    "last_seen": "2018-06-23T04:54:57Z",
    "lat": 42.4140158,
    "lng": -71.123,
    "location": "",
    "lon": -71.123,
    "min_horizon": 10,
    "name": "Tester1",
    "observations": 16,
    "qthlocator": "FN42kj",
    "status": "Testing"
  },
  {
    "alt": 15,
    "altitude": 15,
    "antenna": [
      "VHF Turnstile"
    ],
    "created": "2018-05-28T18:33:28Z",
    "description": "",
    "id": 116,
    "last_seen": "2018-06-13T20:37:51Z",
    "lat": 17.890881,
    "lng": -87.980121,
    "location": "",
    "lon": -87.980121,
    "min_horizon": 10,
    "name": "V31SH",
    "observations": 0,
    "qthlocator": "EK67av",
    "status": "Offline"
  },
  {
    "alt": 7,
    "altitude": 7,
    "antenna": [
      "VHF Turnstile"
    ],
    "created": "2018-05-29T06:48:11Z",
    "description": "",
    "id": 117,
    "last_seen": null,
    "lat": -32.11875,
    "lng": 115.9375,
    "location": "",
    "lon": 115.9375,
    "min_horizon": 0,
    "name": "shiggy@iprimus.com.au",
    "observations": 0,
    "qthlocator": "OF77xv",
    "status": "Offline"
  },
  {
    "alt": 612,
    "altitude": 612,
    "antenna": [
      "VHF Yagi"
    ],
    "created": "2018-05-29T15:09:21Z",
    "description": "",
    "id": 120,
    "last_seen": null,
    "lat": 42.81755,
    "lng": 1.5846,
    "location": "",
    "lon": 1.5846,
    "min_horizon": 20,
    "name": "F6HDW",
    "observations": 0,
    "qthlocator": "JN02tt",
    "status": "Offline"
  },
  {
    "alt": 255,
    "altitude": 255,
    "antenna": [
      "UHF Yagi",
      "VHF Yagi",
      "VHF Yagi"
    ],
    "created": "2018-05-29T15:27:04Z",
    "description": "Testing Process.",
    "id": 121,
    "last_seen": "2018-06-23T04:55:10Z",
    "lat": 39.7909343,
    "lng": -83.999431,
    "location": "",
    "lon": -83.999431,
    "min_horizon": 10,
    "name": "Hummingbird",
    "observations": 40,
    "qthlocator": "EM89as",
    "status": "Testing"
  },
  {
    "alt": 200,
    "altitude": 200,
    "antenna": [
      "UHF Eggbeater"
    ],
    "created": "2018-05-30T07:22:20Z",
    "description": "No frequency correction due to doppler effect",
    "id": 122,
    "last_seen": null,
    "lat": 10.367497,
    "lng": -84.512909,
    "location": "",
    "lon": -84.512909,
    "min_horizon": 15,
    "name": "TEC-SC",
    "observations": 0,
    "qthlocator": "EK70ri",
    "status": "Offline"
  },
  {
    "alt": 535,
    "altitude": 535,
    "antenna": [
      "UHF Yagi",
      "VHF Yagi"
    ],
    "created": "2018-06-03T11:48:05Z",
    "description": "BG8DIV  ZHOU KUN",
    "id": 123,
    "last_seen": null,
    "lat": 30.7158,
    "lng": 104.113,
    "location": "",
    "lon": 104.113,
    "min_horizon": 10,
    "name": "BG8DIV",
    "observations": 0,
    "qthlocator": "OM20br",
    "status": "Offline"
  },
  {
    "alt": 35,
    "altitude": 35,
    "antenna": [
      "UHF Yagi"
    ],
    "created": "2018-06-03T14:25:30Z",
    "description": "At the moment this yagi is being installed for testing. It is a 6 element with good SWR of between 1.01 and 1.09 in the 430 to 440Mhz range. No rotator is available yet, yagi is pointing to zenith.",
    "id": 124,
    "last_seen": "2018-06-18T20:36:57Z",
    "lat": 35.895979,
    "lng": 14.475176,
    "location": "",
    "lon": 14.475176,
    "min_horizon": 60,
    "name": "9H1Y-70cm-yagi-zenith",
    "observations": 28,
    "qthlocator": "JM75fv",
    "status": "Offline"
  },
  {
    "alt": 1,
    "altitude": 1,
    "antenna": [
      "UHF Turnstile"
    ],
    "created": "2018-06-04T11:00:12Z",
    "description": "Antenna and ground station for test version V0",
    "id": 125,
    "last_seen": "2018-06-23T04:55:25Z",
    "lat": 43.636566,
    "lng": 3.843127,
    "location": "",
    "lon": 3.843127,
    "min_horizon": 15,
    "name": "CSU test station v0",
    "observations": 13,
    "qthlocator": "JN13wp",
    "status": "Testing"
  },
  {
    "alt": 220,
    "altitude": 220,
    "antenna": [
      "VHF Quadrafilar"
    ],
    "created": "2018-06-04T18:18:52Z",
    "description": "",
    "id": 126,
    "last_seen": "2018-06-23T04:55:27Z",
    "lat": 50.0255,
    "lng": 15.767,
    "location": "",
    "lon": 15.767,
    "min_horizon": 5,
    "name": "Hvezdarna barona Artura Krause",
    "observations": 93,
    "qthlocator": "JO70va",
    "status": "Testing"
  },
  {
    "alt": 2,
    "altitude": 2,
    "antenna": [
      "VHF Turnstile"
    ],
    "created": "2018-06-05T11:29:29Z",
    "description": "Test of a mobile receiver station",
    "id": 127,
    "last_seen": "2018-06-17T09:21:43Z",
    "lat": 47.801,
    "lng": 9.411,
    "location": "",
    "lon": 9.411,
    "min_horizon": 10,
    "name": "G-Station",
    "observations": 0,
    "qthlocator": "JN47qt",
    "status": "Offline"
  },
  {
    "alt": 17,
    "altitude": 17,
    "antenna": [
      "VHF Quadrafilar"
    ],
    "created": "2018-06-05T21:17:18Z",
    "description": "",
    "id": 128,
    "last_seen": null,
    "lat": 57.657408,
    "lng": -3.305588,
    "location": "",
    "lon": -3.305588,
    "min_horizon": 3,
    "name": "2M0SQL",
    "observations": 0,
    "qthlocator": "IO87ip",
    "status": "Offline"
  },
  {
    "alt": 300,
    "altitude": 300,
    "antenna": [
      "HF Dipole"
    ],
    "created": "2018-06-06T18:56:30Z",
    "description": "",
    "id": 129,
    "last_seen": "2018-06-07T12:49:54Z",
    "lat": 37.818732,
    "lng": -122.180725,
    "location": "",
    "lon": -122.180725,
    "min_horizon": 10,
    "name": "Chabot Space and Science Center",
    "observations": 27,
    "qthlocator": "CM87vt",
    "status": "Offline"
  },
  {
    "alt": 50,
    "altitude": 50,
    "antenna": [
      "VHF Turnstile",
      "UHF Turnstile"
    ],
    "created": "2018-06-06T21:29:12Z",
    "description": "Station without rotor, for testing purpose.",
    "id": 130,
    "last_seen": "2018-06-23T04:55:25Z",
    "lat": 48.882767,
    "lng": 2.17693,
    "location": "",
    "lon": 2.17693,
    "min_horizon": 10,
    "name": "XTOPHE",
    "observations": 134,
    "qthlocator": "JN18cv",
    "status": "Online"
  },
  {
    "alt": 80,
    "altitude": 80,
    "antenna": [
      "UHF Yagi"
    ],
    "created": "2018-06-07T13:44:30Z",
    "description": "rtl-sdr. catv preamp",
    "id": 131,
    "last_seen": null,
    "lat": -6.2292,
    "lng": 106.9583,
    "location": "",
    "lon": 106.9583,
    "min_horizon": 25,
    "name": "yb3mbn",
    "observations": 0,
    "qthlocator": "OI33ls",
    "status": "Offline"
  },
  {
    "alt": 5,
    "altitude": 5,
    "antenna": [
      "VHF Turnstile"
    ],
    "created": "2018-06-08T01:41:07Z",
    "description": "V-dipole, 5m RG174, (black) rtl-sdr, Odroid HC1. No amplifier, no filters, no rotator, no view to the south, east nor north. Not the final setup. :)",
    "id": 132,
    "last_seen": "2018-06-19T06:11:17Z",
    "lat": 50.73,
    "lng": 7.06,
    "location": "",
    "lon": 7.06,
    "min_horizon": 10,
    "name": "JO30MRTest",
    "observations": 8,
    "qthlocator": "JO30mr",
    "status": "Offline"
  },
  {
    "alt": 5,
    "altitude": 5,
    "antenna": [
      "VHF Turnstile",
      "UHF Turnstile"
    ],
    "created": "2018-06-08T07:35:32Z",
    "description": "Test station Turnstile 440 Mhz -Rpi and RTLSDR - cross dipole",
    "id": 133,
    "last_seen": "2018-06-22T21:03:13Z",
    "lat": 47.17242,
    "lng": 0.18035,
    "location": "",
    "lon": 0.18035,
    "min_horizon": 2,
    "name": "PA2EON",
    "observations": 18,
    "qthlocator": "JN07ce",
    "status": "Offline"
  },
  {
    "alt": 530,
    "altitude": 530,
    "antenna": [
      "VHF Turnstile"
    ],
    "created": "2018-06-08T16:58:01Z",
    "description": "",
    "id": 134,
    "last_seen": null,
    "lat": 40.08384,
    "lng": 21.42739,
    "location": "",
    "lon": 21.42739,
    "min_horizon": 10,
    "name": "Grevena_SatNogs_Station",
    "observations": 0,
    "qthlocator": "KN00rc",
    "status": "Offline"
  },
  {
    "alt": null,
    "altitude": 0,
    "antenna": [
      "HF Dipole"
    ],
    "created": "2018-06-12T17:01:48Z",
    "description": "Tufts Station",
    "id": 135,
    "last_seen": "2018-06-22T15:40:27Z",
    "lat": 42.366062,
    "lng": -71.09478,
    "location": "",
    "lon": -71.09478,
    "min_horizon": 15,
    "name": "The Best Station",
    "observations": 23,
    "qthlocator": "FN42ki",
    "status": "Offline"
  },
  {
    "alt": 645,
    "altitude": 645,
    "antenna": [
      "VHF Yagi",
      "VHF Turnstile",
      "UHF Turnstile"
    ],
    "created": "2018-06-13T10:43:16Z",
    "description": "FT897 / HackRf / Rtl-Sdr E4000",
    "id": 136,
    "last_seen": null,
    "lat": 45.941,
    "lng": 6.184,
    "location": "",
    "lon": 6.184,
    "min_horizon": 280,
    "name": "F0FYF",
    "observations": 0,
    "qthlocator": "JN35cw",
    "status": "Offline"
  },
  {
    "alt": 33,
    "altitude": 33,
    "antenna": [
      "HF Dipole"
    ],
    "created": "2018-06-14T22:50:33Z",
    "description": "",
    "id": 138,
    "last_seen": null,
    "lat": 11.562108,
    "lng": 104.888535,
    "location": "",
    "lon": 104.888535,
    "min_horizon": 10,
    "name": "HooverPP",
    "observations": 0,
    "qthlocator": "OK21kn",
    "status": "Offline"
  },
  {
    "alt": 62,
    "altitude": 62,
    "antenna": [
      "VHF Yagi"
    ],
    "created": "2018-06-15T13:11:41Z",
    "description": "Under Construction - will be a V3 Rotator and Satnogs controller. Software to be run on Raspberry pi 3.\r\nLive date in around 2 weeks (1/7/2018).\r\n Will be established in back garden of QTH with twin Yagi antennas. Will utilised HF+ SDR receiver.",
    "id": 139,
    "last_seen": null,
    "lat": 52.9405,
    "lng": -1.5044,
    "location": "",
    "lon": -1.5044,
    "min_horizon": 10,
    "name": "Derby Central",
    "observations": 0,
    "qthlocator": "IO92fw",
    "status": "Offline"
  },
  {
    "alt": 40,
    "altitude": 40,
    "antenna": [
      "VHF Turnstile"
    ],
    "created": "2018-06-19T10:13:07Z",
    "description": "",
    "id": 140,
    "last_seen": "2018-06-20T08:43:58Z",
    "lat": 48.354816,
    "lng": 10.904797,
    "location": "",
    "lon": 10.904797,
    "min_horizon": 10,
    "name": "DF0HSA",
    "observations": 8,
    "qthlocator": "JN58ki",
    "status": "Offline"
  },
  {
    "alt": 200,
    "altitude": 200,
    "antenna": [
      "VHF Turnstile",
      "UHF Turnstile"
    ],
    "created": "2018-06-20T17:51:54Z",
    "description": "",
    "id": 141,
    "last_seen": "2018-06-23T04:53:58Z",
    "lat": 48.15076,
    "lng": 17.05083,
    "location": "",
    "lon": 17.05083,
    "min_horizon": 10,
    "name": "balcony",
    "observations": 48,
    "qthlocator": "JN88md",
    "status": "Testing"
  }
]